{"business_id": "duHFBe87uNSXImQmvBh87Q", "name": "Blimpie", "neighborhood": "", "address": "4719 N 20Th St", "city": "Phoenix", "state": "AZ", "postal_code": "85016", "latitude": 33.5059283, "longitude": -112.0388474, "stars": 4.5, "review_count": 10, "is_open": 0, "attributes": {"RestaurantsTableService": false, "GoodForMeal": {"dessert": false, "latenight": false, "lunch": false, "dinner": false, "breakfast": false, "brunch": false}, "Alcohol": "none", "Caters": true, "HasTV": false, "RestaurantsGoodForGroups": true, "NoiseLevel": "quiet", "WiFi": "no", "RestaurantsAttire": "casual", "RestaurantsReservations": false, "OutdoorSeating": false, "BusinessAcceptsCreditCards": true, "RestaurantsPriceRange2": 1, "BikeParking": true, "RestaurantsDelivery": false, "Ambience": {"romantic": false, "intimate": false, "classy": false, "hipster": false, "divey": false, "touristy": false, "trendy": false, "upscale": false, "casual": false}, "RestaurantsTakeOut": true, "GoodForKids": true, "BusinessParking": {"garage": false, "street": false, "validated": false, "lot": false, "valet": false}}, "categories": ["Sandwiches", "Restaurants"], "hours": {}}
{"business_id": "2eJEUJIP54tex7T9YOcLSw", "name": "Back-Health Chiropractic", "neighborhood": "", "address": "4425 N 24th St, Ste 125", "city": "Phoenix", "state": "AZ", "postal_code": "85016", "latitude": 33.5028476, "longitude": -112.012696, "stars": 5.0, "review_count": 19, "is_open": 1, "attributes": {"AcceptsInsurance": true, "ByAppointmentOnly": true, "BusinessAcceptsCreditCards": true}, "categories": ["Chiropractors", "Health & Medical"], "hours": {"Friday": "9:00-12:00", "Tuesday": "14:00-19:00", "Thursday": "14:00-19:00", "Wednesday": "14:30-17:00", "Monday": "14:30-17:00"}}
{"business_id": "xmY0pzNvZKEzuN0XEqeV5w", "name": "QQ Foot Spa", "neighborhood": "", "address": "6162 W Flamingo Rd", "city": "Las Vegas", "state": "NV", "postal_code": "89103", "latitude": 36.115465, "longitude": -115.226764, "stars": 4.5, "review_count": 20, "is_open": 1, "attributes": {"BusinessParking": {"garage": false, "street": false, "validated": false, "lot": false, "valet": false}, "BusinessAcceptsCreditCards": true, "RestaurantsPriceRange2": 1, "BikeParking": true, "AcceptsInsurance": false, "ByAppointmentOnly": false, "WheelchairAccessible": false}, "categories": ["Massage", "Beauty & Spas", "Reflexology", "Health & Medical"], "hours": {"Monday": "10:00-0:00", "Tuesday": "10:00-0:00", "Friday": "10:00-0:00", "Wednesday": "10:00-0:00", "Thursday": "10:00-0:00", "Sunday": "10:00-0:00", "Saturday": "10:00-0:00"}}
{"business_id": "HRFJlSAP_EBU_MpPPmpUDQ", "name": "Domino's Pizza", "neighborhood": "", "address": "25 W Warner Rd", "city": "Chandler", "state": "AZ", "postal_code": "85225", "latitude": 33.3350578, "longitude": -111.8430762, "stars": 2.5, "review_count": 20, "is_open": 1, "attributes": {"RestaurantsTableService": false, "GoodForMeal": {"dessert": false, "latenight": false, "lunch": true, "dinner": false, "breakfast": false, "brunch": false}, "Alcohol": "none", "Caters": false, "HasTV": false, "RestaurantsGoodForGroups": false, "NoiseLevel": "quiet", "WiFi": "no", "RestaurantsAttire": "casual", "RestaurantsReservations": false, "OutdoorSeating": false, "BusinessAcceptsCreditCards": true, "RestaurantsPriceRange2": 1, "BikeParking": false, "RestaurantsDelivery": true, "Ambience": {"romantic": false, "intimate": false, "classy": false, "hipster": false, "divey": false, "touristy": false, "trendy": false, "upscale": false, "casual": false}, "RestaurantsTakeOut": true, "GoodForKids": true, "BusinessParking": {"garage": false, "street": false, "validated": false, "lot": false, "valet": false}}, "categories": ["Chicken Wings", "Sandwiches", "Restaurants", "Pizza"], "hours": {"Monday": "10:00-1:00", "Tuesday": "10:00-1:00", "Friday": "10:00-2:00", "Wednesday": "10:00-1:00", "Thursday": "10:00-1:00", "Sunday": "10:00-1:00", "Saturday": "10:00-2:00"}}
{"business_id": "FLTbKRmBytP1AbjWSPEeyw", "name": "Szechuan Cuisine", "neighborhood": "", "address": "5865 W Ray Rd", "city": "Chandler", "state": "AZ", "postal_code": "85226", "latitude": 33.3187306943, "longitude": -111.943387985, "stars": 4.0, "review_count": 16, "is_open": 0, "attributes": {"GoodForMeal": {"dessert": false, "latenight": false, "lunch": true, "dinner": true, "breakfast": false, "brunch": false}, "BusinessParking": {"garage": false, "street": false, "validated": false, "lot": false, "valet": false}, "Caters": true, "HasTV": true, "RestaurantsGoodForGroups": true, "NoiseLevel": "quiet", "RestaurantsAttire": "casual", "RestaurantsReservations": true, "OutdoorSeating": false, "BusinessAcceptsCreditCards": true, "RestaurantsPriceRange2": 1, "RestaurantsTableService": true, "RestaurantsDelivery": false, "Ambience": {"romantic": false, "intimate": false, "classy": false, "hipster": false, "divey": false, "touristy": false, "trendy": false, "upscale": false, "casual": true}, "RestaurantsTakeOut": true, "GoodForKids": true}, "categories": ["Restaurants", "Chinese"], "hours": {"Monday": "11:00-21:00", "Tuesday": "11:00-21:00", "Friday": "11:00-22:00", "Wednesday": "11:00-21:00", "Thursday": "11:00-21:00", "Sunday": "11:00-21:00", "Saturday": "11:00-22:00"}}
{"business_id": "1AxEmgv8Dsr3iU9Aa40jPw", "name": "Nabers Music, Bar & Eats", "neighborhood": "", "address": "825 N 54th St", "city": "Chandler", "state": "AZ", "postal_code": "85226", "latitude": 33.3162778, "longitude": -111.9680183, "stars": 4.0, "review_count": 75, "is_open": 0, "attributes": {"BusinessParking": {"garage": false, "street": false, "validated": false, "lot": true, "valet": false}, "HasTV": true, "CoatCheck": false, "NoiseLevel": "average", "OutdoorSeating": true, "BusinessAcceptsCreditCards": true, "RestaurantsPriceRange2": 2, "Music": {"dj": false, "background_music": false, "no_music": false, "karaoke": false, "live": true, "video": false, "jukebox": false}, "BikeParking": true, "Smoking": "outdoor", "Ambience": {"romantic": false, "intimate": false, "classy": false, "hipster": false, "divey": false, "touristy": false, "trendy": false, "upscale": false, "casual": true}, "BestNights": {"monday": false, "tuesday": false, "friday": true, "wednesday": true, "thursday": false, "sunday": false, "saturday": true}, "RestaurantsGoodForGroups": true, "HappyHour": true, "GoodForDancing": true, "Alcohol": "full_bar"}, "categories": ["Nightlife", "Restaurants", "Bars"], "hours": {"Monday": "11:00-0:00", "Tuesday": "11:00-0:00", "Friday": "11:00-2:00", "Wednesday": "11:00-0:00", "Thursday": "11:00-0:00", "Sunday": "11:00-0:00", "Saturday": "11:00-2:00"}}
{"business_id": "QTH_XGh4rWYdd0fTW-tUDw", "name": "Baja Fresh Mexican Grill", "neighborhood": "Spring Valley", "address": "4190 S Rainbow Blvd", "city": "Las Vegas", "state": "NV", "postal_code": "89103", "latitude": 36.1125192, "longitude": -115.2426053, "stars": 3.5, "review_count": 7, "is_open": 0, "attributes": {"RestaurantsPriceRange2": 1, "RestaurantsAttire": "casual", "Alcohol": "none", "RestaurantsReservations": false}, "categories": ["Mexican", "Restaurants"], "hours": {}}
{"business_id": "SnlaPHqW3ksKfpH12pDGeg", "name": "Dash Designs", "neighborhood": "", "address": "6014 S Ash Ave", "city": "Tempe", "state": "AZ", "postal_code": "85283", "latitude": 33.3684114, "longitude": -111.9343636, "stars": 3.5, "review_count": 8, "is_open": 0, "attributes": {}, "categories": ["Automotive", "Auto Parts & Supplies"], "hours": {}}
{"business_id": "wJY74R0zAgjxvBf-d4gm9g", "name": "Kelly's At Southbridge", "neighborhood": "", "address": "7117 E 6th Ave", "city": "Scottsdale", "state": "AZ", "postal_code": "85251", "latitude": 33.4987215, "longitude": -111.9274506, "stars": 3.5, "review_count": 224, "is_open": 1, "attributes": {"RestaurantsTableService": true, "GoodForMeal": {"dessert": false, "latenight": true, "lunch": false, "dinner": true, "breakfast": false, "brunch": false}, "DogsAllowed": true, "Alcohol": "full_bar", "Caters": false, "HasTV": true, "RestaurantsGoodForGroups": true, "NoiseLevel": "loud", "WiFi": "free", "RestaurantsAttire": "casual", "RestaurantsReservations": true, "OutdoorSeating": true, "BusinessAcceptsCreditCards": true, "RestaurantsPriceRange2": 2, "BikeParking": true, "RestaurantsDelivery": false, "Ambience": {"romantic": false, "intimate": false, "classy": false, "hipster": false, "divey": false, "touristy": false, "trendy": false, "upscale": false, "casual": true}, "RestaurantsTakeOut": true, "GoodForKids": false, "WheelchairAccessible": true, "BusinessParking": {"garage": false, "street": true, "validated": false, "lot": false, "valet": false}}, "categories": ["American (New)", "Restaurants"], "hours": {"Monday": "11:00-22:00", "Tuesday": "16:00-22:00", "Friday": "16:00-2:00", "Wednesday": "16:00-22:00", "Thursday": "16:00-23:00", "Sunday": "11:00-22:00", "Saturday": "11:00-2:00"}}
{"business_id": "G7QZWVm-ytyKHpvUq3ggFA", "name": "Sal's New York Pizzeria", "neighborhood": "South Side", "address": "1322 E Carson St", "city": "Pittsburgh", "state": "PA", "postal_code": "15203", "latitude": 40.428624, "longitude": -79.9843691, "stars": 3.0, "review_count": 19, "is_open": 1, "attributes": {"GoodForMeal": {"dessert": false, "latenight": false, "lunch": false, "dinner": false, "breakfast": false, "brunch": false}, "HasTV": false, "RestaurantsGoodForGroups": true, "RestaurantsAttire": "casual", "RestaurantsReservations": false, "OutdoorSeating": false, "BusinessAcceptsCreditCards": true, "RestaurantsPriceRange2": 2, "RestaurantsTableService": false, "RestaurantsDelivery": true, "Ambience": {"romantic": false, "intimate": false, "classy": false, "hipster": false, "divey": false, "touristy": false, "trendy": false, "upscale": false, "casual": false}, "RestaurantsTakeOut": true, "GoodForKids": true}, "categories": ["Restaurants", "Pizza"], "hours": {"Monday": "16:00-3:00", "Tuesday": "16:00-3:00", "Friday": "16:00-4:00", "Wednesday": "16:00-3:00", "Thursday": "16:00-4:00", "Sunday": "16:00-3:00", "Saturday": "16:00-4:00"}}
{"business_id": "mAK6DD0pEOOdQzj08gWW5g", "name": "AutoZone", "neighborhood": "Westside", "address": "9336 W Sahara Ave", "city": "Las Vegas", "state": "NV", "postal_code": "89117", "latitude": 36.1464299161, "longitude": -115.29900102, "stars": 4.0, "review_count": 36, "is_open": 1, "attributes": {"BusinessAcceptsCreditCards": true}, "categories": ["Auto Parts & Supplies", "Automotive"], "hours": {"Monday": "7:30-22:00", "Tuesday": "7:30-22:00", "Friday": "7:30-22:00", "Wednesday": "7:30-22:00", "Thursday": "7:30-22:00", "Sunday": "7:30-21:00", "Saturday": "7:30-22:00"}}
{"business_id": "81sJG9LJ9ahscSNBUYYUGw", "name": "New P2K salon", "neighborhood": "Chinatown", "address": "5115 Spring Mountain Rd, Ste113", "city": "Las Vegas", "state": "NV", "postal_code": "89146", "latitude": 36.1255374, "longitude": -115.2112409, "stars": 2.0, "review_count": 7, "is_open": 1, "attributes": {"BusinessParking": {"garage": true, "street": true, "validated": false, "lot": false, "valet": false}, "HairSpecializesIn": {"coloring": true, "africanamerican": false, "curly": true, "perms": true, "kids": false, "extensions": false, "asian": true, "straightperms": false}, "BusinessAcceptsCreditCards": false, "RestaurantsPriceRange2": 2, "BikeParking": false, "GoodForKids": true, "ByAppointmentOnly": false, "WheelchairAccessible": true}, "categories": ["Hair Salons", "Beauty & Spas"], "hours": {"Monday": "10:00-19:00", "Tuesday": "10:00-19:00", "Friday": "10:00-19:00", "Wednesday": "10:00-19:00", "Thursday": "10:00-19:00", "Saturday": "10:00-19:00"}}
{"business_id": "Ek4ZVbzF6vJkgqfK-576wA", "name": "Veritas", "neighborhood": "Southeast", "address": "3370 St Rose Pkwy", "city": "Henderson", "state": "NV", "postal_code": "89052", "latitude": 35.9940710136, "longitude": -115.135216713, "stars": 4.0, "review_count": 36, "is_open": 1, "attributes": {"BusinessAcceptsCreditCards": true, "ByAppointmentOnly": false}, "categories": ["Real Estate", "Home Services", "Property Management", "Apartments"], "hours": {"Monday": "9:00-19:00", "Tuesday": "9:00-19:00", "Friday": "9:00-19:00", "Wednesday": "10:00-19:00", "Thursday": "9:00-19:00", "Sunday": "13:00-17:00", "Saturday": "10:00-17:00"}}
{"business_id": "n5Bu0WBhCiQ5umCE5EzSjg", "name": "Mercedes-Benz of Arrowhead", "neighborhood": "", "address": "9260 W Bell Rd", "city": "Peoria", "state": "AZ", "postal_code": "85382", "latitude": 33.6390552092, "longitude": -112.258500664, "stars": 3.0, "review_count": 42, "is_open": 1, "attributes": {"BusinessAcceptsCreditCards": true}, "categories": ["Automotive", "Auto Parts & Supplies", "Car Dealers"], "hours": {"Monday": "9:00-19:00", "Tuesday": "9:00-19:00", "Friday": "9:00-19:00", "Wednesday": "9:00-19:00", "Thursday": "9:00-19:00", "Sunday": "12:00-17:00", "Saturday": "9:00-18:00"}}
{"business_id": "XFQbescZxNRAb2U-NwdLlg", "name": "Claim Jumper", "neighborhood": "", "address": "7000 E Shea Blvd", "city": "Scottsdale", "state": "AZ", "postal_code": "85254", "latitude": 33.5826712, "longitude": -111.929119, "stars": 3.5, "review_count": 22, "is_open": 0, "attributes": {"GoodForMeal": {"dessert": false, "latenight": false, "lunch": false, "dinner": false, "breakfast": false, "brunch": false}, "Alcohol": "full_bar", "Caters": false, "HasTV": false, "RestaurantsGoodForGroups": true, "WiFi": "no", "RestaurantsAttire": "casual", "RestaurantsReservations": true, "OutdoorSeating": false, "BusinessAcceptsCreditCards": true, "RestaurantsPriceRange2": 2, "RestaurantsTableService": true, "RestaurantsDelivery": false, "RestaurantsTakeOut": true, "GoodForKids": true, "WheelchairAccessible": true, "BusinessParking": {"garage": false, "street": false, "validated": false, "lot": true, "valet": false}}, "categories": ["American (Traditional)", "Restaurants"], "hours": {"Monday": "11:00-22:00", "Tuesday": "11:00-22:00", "Friday": "11:00-23:00", "Wednesday": "11:00-22:00", "Thursday": "11:00-22:00", "Sunday": "11:00-21:00", "Saturday": "11:00-23:00"}}
{"business_id": "IlIjvEc4Nikn_2GF_3MhbQ", "name": "Ritters Auto Repair", "neighborhood": "", "address": "1135 N McQueen Rd, Ste 129, Fiesta Ranch Business Center", "city": "Gilbert", "state": "AZ", "postal_code": "85233", "latitude": 33.3696119, "longitude": -111.8234823, "stars": 5.0, "review_count": 7, "is_open": 1, "attributes": {"BusinessAcceptsCreditCards": true}, "categories": ["Automotive", "Auto Repair"], "hours": {"Friday": "7:00-17:30", "Tuesday": "7:00-17:30", "Thursday": "7:00-17:30", "Wednesday": "7:00-17:30", "Monday": "7:00-17:30"}}
{"business_id": "MqhxKfI7oMjUTMqH2gnhyg", "name": "McDonald's", "neighborhood": "", "address": "1812 N Neil St", "city": "Champaign", "state": "IL", "postal_code": "61820", "latitude": 40.1375686, "longitude": -88.2430516, "stars": 1.5, "review_count": 10, "is_open": 1, "attributes": {"GoodForMeal": {"dessert": false, "latenight": false, "lunch": false, "dinner": false, "breakfast": false, "brunch": false}, "Alcohol": "none", "Caters": false, "HasTV": true, "RestaurantsGoodForGroups": true, "RestaurantsAttire": "casual", "RestaurantsReservations": false, "BusinessAcceptsCreditCards": true, "RestaurantsPriceRange2": 1, "RestaurantsDelivery": false, "Ambience": {"romantic": false, "intimate": false, "classy": false, "hipster": false, "divey": false, "touristy": false, "trendy": false, "upscale": false, "casual": false}, "RestaurantsTakeOut": false, "GoodForKids": true, "DriveThru": true, "BusinessParking": {"garage": false, "street": false, "validated": false, "lot": false, "valet": false}}, "categories": ["Fast Food", "Restaurants", "Burgers"], "hours": {}}
{"business_id": "29fQtyR9EtAlA75e4jGzRw", "name": "Ahn & Perez, DDS", "neighborhood": "", "address": "2039 S Mill Ave, Ste F", "city": "Tempe", "state": "AZ", "postal_code": "85282", "latitude": 33.4061624, "longitude": -111.9393652, "stars": 4.5, "review_count": 13, "is_open": 1, "attributes": {"AcceptsInsurance": true, "ByAppointmentOnly": true, "BusinessAcceptsCreditCards": true}, "categories": ["General Dentistry", "Health & Medical", "Dentists"], "hours": {"Tuesday": "8:00-17:00", "Thursday": "7:00-17:00", "Wednesday": "8:00-17:00", "Monday": "8:00-17:00"}}
{"business_id": "TYGVaav4hWZioQlk9Ig78A", "name": "Cody's Smokin' Barbecue", "neighborhood": "Downtown", "address": "1675 S Industrial Rd", "city": "Las Vegas", "state": "NV", "postal_code": "89102", "latitude": 36.1510984, "longitude": -115.1598044, "stars": 4.5, "review_count": 70, "is_open": 0, "attributes": {"RestaurantsTableService": false, "GoodForMeal": {"dessert": false, "latenight": false, "lunch": true, "dinner": true, "breakfast": false, "brunch": true}, "Alcohol": "full_bar", "Caters": true, "HasTV": true, "RestaurantsGoodForGroups": true, "NoiseLevel": "average", "WiFi": "no", "RestaurantsAttire": "casual", "RestaurantsReservations": false, "OutdoorSeating": true, "BusinessAcceptsCreditCards": true, "RestaurantsPriceRange2": 2, "BikeParking": true, "RestaurantsDelivery": true, "Ambience": {"romantic": false, "intimate": false, "classy": false, "hipster": false, "divey": true, "touristy": false, "trendy": false, "upscale": false, "casual": false}, "RestaurantsTakeOut": true, "GoodForKids": false, "BusinessParking": {"garage": false, "street": false, "validated": false, "lot": true, "valet": false}}, "categories": ["Restaurants", "Barbeque"], "hours": {"Friday": "11:00-19:00", "Tuesday": "11:00-19:00", "Thursday": "11:00-19:00", "Wednesday": "11:00-19:00", "Monday": "11:00-19:00"}}
{"business_id": "pPNcs_59jNiQSs0Yq13bGw", "name": "Friday's Front Row Sports Grill", "neighborhood": "", "address": "401 E Jefferson St", "city": "Phoenix", "state": "AZ", "postal_code": "85004", "latitude": 33.4453626, "longitude": -112.0674961, "stars": 3.0, "review_count": 127, "is_open": 1, "attributes": {"Alcohol": "full_bar", "HasTV": true, "NoiseLevel": "average", "RestaurantsAttire": "casual", "BusinessAcceptsCreditCards": true, "Ambience": {"romantic": false, "intimate": false, "classy": false, "hipster": false, "divey": false, "touristy": false, "trendy": false, "upscale": false, "casual": true}, "RestaurantsGoodForGroups": true, "BYOBCorkage": "yes_free", "Caters": false, "WiFi": "free", "RestaurantsReservations": true, "BYOB": false, "RestaurantsTableService": true, "Corkage": false, "RestaurantsTakeOut": true, "GoodForKids": true, "WheelchairAccessible": true, "BikeParking": true, "OutdoorSeating": true, "RestaurantsPriceRange2": 2, "RestaurantsDelivery": false, "GoodForMeal": {"dessert": false, "latenight": false, "lunch": true, "dinner": true, "breakfast": false, "brunch": false}, "BusinessParking": {"garage": true, "street": true, "validated": false, "lot": false, "valet": false}}, "categories": ["Restaurants", "American (Traditional)"], "hours": {"Monday": "11:00-22:00", "Tuesday": "11:00-22:00", "Friday": "11:00-22:00", "Wednesday": "11:00-22:00", "Thursday": "11:00-22:00", "Sunday": "11:00-22:00", "Saturday": "11:00-22:00"}}
{"business_id": "jJDnxINrCKstFyeH3F8Cfw", "name": "Earnhardt Chrysler Jeep Dodge", "neighborhood": "", "address": "1301 N Arizona Ave", "city": "Gilbert", "state": "AZ", "postal_code": "85233", "latitude": 33.373513, "longitude": -111.840704, "stars": 2.0, "review_count": 27, "is_open": 0, "attributes": {"BusinessAcceptsCreditCards": true}, "categories": ["Car Dealers", "Automotive", "Auto Repair"], "hours": {"Monday": "8:00-21:00", "Tuesday": "8:00-21:00", "Friday": "8:00-21:00", "Wednesday": "8:00-21:00", "Thursday": "8:00-21:00", "Sunday": "10:00-18:00", "Saturday": "8:00-20:00"}}
{"business_id": "W-3Sy3fy85mQdd0ZNFKIiw", "name": "Applebee's", "neighborhood": "Chinatown", "address": "3501 S Rainbow", "city": "Las Vegas", "state": "NV", "postal_code": "89103", "latitude": 36.1252695702, "longitude": -115.243588275, "stars": 2.5, "review_count": 74, "is_open": 1, "attributes": {"Alcohol": "full_bar", "HasTV": true, "NoiseLevel": "average", "RestaurantsAttire": "casual", "WheelchairAccessible": true, "BusinessAcceptsCreditCards": true, "Music": {"dj": false, "background_music": false, "no_music": false, "karaoke": false, "live": false, "video": false, "jukebox": false}, "Ambience": {"romantic": false, "intimate": false, "classy": false, "hipster": false, "divey": false, "touristy": false, "trendy": false, "upscale": false, "casual": true}, "RestaurantsGoodForGroups": true, "Caters": false, "WiFi": "free", "RestaurantsReservations": false, "RestaurantsTableService": true, "RestaurantsTakeOut": true, "GoodForKids": true, "HappyHour": true, "GoodForDancing": false, "BikeParking": true, "OutdoorSeating": false, "RestaurantsPriceRange2": 2, "RestaurantsDelivery": false, "BestNights": {"monday": false, "tuesday": true, "friday": false, "wednesday": false, "thursday": false, "sunday": false, "saturday": false}, "GoodForMeal": {"dessert": false, "latenight": true, "lunch": true, "dinner": true, "breakfast": false, "brunch": false}, "BusinessParking": {"garage": false, "street": false, "validated": false, "lot": true, "valet": false}, "CoatCheck": false, "DriveThru": false}, "categories": ["Sports Bars", "Nightlife", "Burgers", "Bars", "American (Traditional)", "Restaurants", "Food"], "hours": {"Monday": "11:00-0:00", "Tuesday": "11:00-0:00", "Friday": "11:00-0:00", "Wednesday": "11:00-0:00", "Thursday": "11:00-0:00", "Sunday": "11:00-0:00", "Saturday": "11:00-0:00"}}
{"business_id": "bFivfq9tbnfyokkzRpQ4GQ", "name": "Divine Salon", "neighborhood": "", "address": "76 W Horizon Ridge, Ste 140", "city": "Henderson", "state": "NV", "postal_code": "89012", "latitude": 36.013921, "longitude": -114.99288, "stars": 3.5, "review_count": 12, "is_open": 0, "attributes": {"BusinessParking": {"garage": false, "street": false, "validated": false, "lot": false, "valet": false}, "BusinessAcceptsCreditCards": true, "RestaurantsPriceRange2": 2, "BikeParking": true, "GoodForKids": true, "ByAppointmentOnly": true}, "categories": ["Hair Salons", "Beauty & Spas"], "hours": {"Tuesday": "9:00-19:00", "Friday": "9:00-19:00", "Wednesday": "9:00-19:00", "Thursday": "9:00-19:00", "Saturday": "9:00-16:00"}}
{"business_id": "fbLYRHIZAt3q839whhaBUg", "name": "Oregano's Pizza Bistro", "neighborhood": "", "address": "4602 E Cactus Rd", "city": "Phoenix", "state": "AZ", "postal_code": "85032", "latitude": 33.5996610763, "longitude": -111.98229337, "stars": 3.5, "review_count": 232, "is_open": 1, "attributes": {"RestaurantsTableService": true, "GoodForMeal": {"dessert": false, "latenight": false, "lunch": true, "dinner": true, "breakfast": false, "brunch": false}, "Alcohol": "full_bar", "Caters": true, "HasTV": true, "RestaurantsGoodForGroups": true, "NoiseLevel": "loud", "WiFi": "no", "RestaurantsAttire": "casual", "RestaurantsReservations": false, "OutdoorSeating": true, "BusinessAcceptsCreditCards": true, "RestaurantsPriceRange2": 2, "BikeParking": true, "RestaurantsDelivery": false, "Ambience": {"romantic": false, "intimate": false, "classy": false, "hipster": false, "divey": false, "touristy": false, "trendy": false, "upscale": false, "casual": true}, "RestaurantsTakeOut": true, "GoodForKids": true, "BusinessParking": {"garage": false, "street": false, "validated": false, "lot": true, "valet": false}}, "categories": ["Pizza", "Italian", "Restaurants"], "hours": {"Monday": "11:00-22:00", "Tuesday": "11:00-22:00", "Friday": "11:00-22:00", "Wednesday": "11:00-22:00", "Thursday": "11:00-22:00", "Sunday": "11:00-22:00", "Saturday": "11:00-22:00"}}
{"business_id": "gIJRuXhpkjk_UI5GnnL0bQ", "name": "Mor Furniture for Less", "neighborhood": "", "address": "4712 E Thunderbird Rd", "city": "Phoenix", "state": "AZ", "postal_code": "85032", "latitude": 33.6115951, "longitude": -111.9798417, "stars": 4.5, "review_count": 54, "is_open": 1, "attributes": {"DogsAllowed": false, "BusinessParking": {"garage": false, "street": false, "validated": false, "lot": true, "valet": false}, "BusinessAcceptsCreditCards": true, "RestaurantsPriceRange2": 2, "BusinessAcceptsBitcoin": false, "BikeParking": true, "WheelchairAccessible": true}, "categories": ["Mattresses", "Shopping", "Home & Garden", "Home Decor", "Furniture Stores"], "hours": {"Monday": "10:00-21:00", "Tuesday": "10:00-21:00", "Friday": "10:00-21:00", "Wednesday": "10:00-21:00", "Thursday": "10:00-21:00", "Sunday": "10:00-20:00", "Saturday": "10:00-21:00"}}
{"business_id": "wkhxaIt6S9bQ0twAD9Svpw", "name": "Giuseppes Pizza & Subs", "neighborhood": "", "address": "728 Richmond Rd", "city": "Cleveland", "state": "OH", "postal_code": "44143", "latitude": 41.5408137, "longitude": -81.4976768, "stars": 3.5, "review_count": 6, "is_open": 0, "attributes": {"RestaurantsReservations": false, "BusinessAcceptsCreditCards": true, "RestaurantsPriceRange2": 2, "RestaurantsTableService": false, "RestaurantsDelivery": true, "RestaurantsTakeOut": true, "RestaurantsGoodForGroups": false}, "categories": ["Restaurants", "Pizza"], "hours": {"Monday": "11:00-21:00", "Tuesday": "11:00-21:00", "Friday": "11:00-23:00", "Wednesday": "11:00-21:00", "Thursday": "11:00-21:00", "Sunday": "12:00-21:00", "Saturday": "11:00-23:00"}}
{"business_id": "jW4-bGuymLGlB9OBsTq3TA", "name": "Toscana Brick Oven", "neighborhood": "", "address": "1800 Main St", "city": "Canonsburg", "state": "PA", "postal_code": "15317", "latitude": 40.275572, "longitude": -80.1667438, "stars": 3.0, "review_count": 46, "is_open": 1, "attributes": {"RestaurantsTableService": true, "GoodForMeal": {"dessert": false, "latenight": false, "lunch": false, "dinner": false, "breakfast": false, "brunch": false}, "Alcohol": "beer_and_wine", "HasTV": true, "RestaurantsGoodForGroups": true, "NoiseLevel": "average", "WiFi": "no", "RestaurantsAttire": "casual", "RestaurantsReservations": true, "OutdoorSeating": true, "BusinessAcceptsCreditCards": true, "RestaurantsPriceRange2": 2, "BikeParking": true, "RestaurantsDelivery": false, "Ambience": {"romantic": false, "intimate": false, "classy": false, "hipster": false, "divey": false, "touristy": false, "trendy": false, "upscale": false, "casual": true}, "RestaurantsTakeOut": true, "GoodForKids": true, "WheelchairAccessible": true, "BusinessParking": {"garage": false, "street": false, "validated": false, "lot": false, "valet": false}}, "categories": ["Italian", "Pizza", "Restaurants"], "hours": {"Monday": "11:00-22:00", "Tuesday": "11:00-22:00", "Friday": "11:00-23:00", "Wednesday": "11:00-22:00", "Thursday": "11:00-22:00", "Sunday": "11:30-21:00", "Saturday": "11:30-23:00"}}
{"business_id": "dXoeLzpG72P7F2Lwa01riQ", "name": "Chipotle Mexican Grill", "neighborhood": "", "address": "13869 W Bell Rd, Ste 107", "city": "Surprise", "state": "AZ", "postal_code": "85374", "latitude": 33.6382111448, "longitude": -112.359094705, "stars": 2.5, "review_count": 102, "is_open": 1, "attributes": {"RestaurantsTableService": false, "GoodForMeal": {"dessert": false, "latenight": false, "lunch": true, "dinner": true, "breakfast": false, "brunch": false}, "Alcohol": "beer_and_wine", "Caters": true, "HasTV": false, "RestaurantsGoodForGroups": true, "NoiseLevel": "average", "WiFi": "no", "RestaurantsAttire": "casual", "RestaurantsReservations": false, "OutdoorSeating": true, "BusinessAcceptsCreditCards": true, "RestaurantsPriceRange2": 1, "BikeParking": true, "RestaurantsDelivery": false, "Ambience": {"romantic": false, "intimate": false, "classy": false, "hipster": false, "divey": false, "touristy": false, "trendy": false, "upscale": false, "casual": true}, "RestaurantsTakeOut": true, "GoodForKids": true, "DriveThru": false, "BusinessParking": {"garage": false, "street": false, "validated": false, "lot": true, "valet": false}}, "categories": ["Fast Food", "Restaurants", "Mexican"], "hours": {"Monday": "10:45-22:00", "Tuesday": "10:45-22:00", "Friday": "10:45-22:00", "Wednesday": "10:45-22:00", "Thursday": "10:45-22:00", "Sunday": "10:45-22:00", "Saturday": "10:45-22:00"}}
{"business_id": "1Ds8V2c7LlwSAA3O-9f4cA", "name": "McDonald's", "neighborhood": "", "address": "1850 S 7th St", "city": "Phoenix", "state": "AZ", "postal_code": "85004", "latitude": 33.4297449, "longitude": -112.065708, "stars": 2.0, "review_count": 8, "is_open": 1, "attributes": {"RestaurantsTableService": false, "GoodForMeal": {"dessert": false, "latenight": false, "lunch": true, "dinner": false, "breakfast": false, "brunch": false}, "Alcohol": "none", "Caters": false, "HasTV": false, "RestaurantsGoodForGroups": true, "NoiseLevel": "average", "WiFi": "free", "RestaurantsAttire": "casual", "RestaurantsReservations": false, "OutdoorSeating": false, "BusinessAcceptsCreditCards": true, "RestaurantsPriceRange2": 3, "BikeParking": true, "RestaurantsDelivery": false, "Ambience": {"romantic": false, "intimate": false, "classy": false, "hipster": false, "divey": false, "touristy": false, "trendy": false, "upscale": false, "casual": false}, "RestaurantsTakeOut": true, "GoodForKids": true, "DriveThru": true, "BusinessParking": {"garage": false, "street": false, "validated": false, "lot": false, "valet": false}}, "categories": ["Burgers", "Restaurants", "Fast Food"], "hours": {"Monday": "5:00-23:00", "Tuesday": "5:00-23:00", "Friday": "5:00-0:00", "Wednesday": "5:00-23:00", "Thursday": "5:00-23:00", "Sunday": "5:00-23:00", "Saturday": "5:00-0:00"}}
{"business_id": "Nr5Reb9duw8GvZGXkbxsYw", "name": "Best Nails", "neighborhood": "Summerlin", "address": "10860 W Charleston Blvd", "city": "Las Vegas", "state": "NV", "postal_code": "89135", "latitude": 36.1612966022, "longitude": -115.333238096, "stars": 2.5, "review_count": 48, "is_open": 1, "attributes": {"BusinessParking": {"garage": false, "street": false, "validated": false, "lot": true, "valet": false}, "BusinessAcceptsCreditCards": true, "RestaurantsPriceRange2": 2, "BikeParking": false, "ByAppointmentOnly": false, "WheelchairAccessible": false}, "categories": ["Beauty & Spas", "Nail Salons"], "hours": {"Monday": "9:00-19:00", "Tuesday": "9:00-19:00", "Friday": "9:00-19:00", "Wednesday": "9:00-19:00", "Thursday": "9:00-19:00", "Sunday": "10:00-17:00", "Saturday": "9:00-18:00"}}
{"business_id": "cGHdjkXa2n9B2apkicdCXQ", "name": "The Coffee Bean & Tea Leaf", "neighborhood": "Summerlin", "address": "10834 W Charleston Blvd, Ste 200", "city": "Las Vegas", "state": "NV", "postal_code": "89135", "latitude": 36.1611321711, "longitude": -115.331700319, "stars": 4.0, "review_count": 81, "is_open": 1, "attributes": {"BusinessParking": {"garage": false, "street": false, "validated": false, "lot": true, "valet": false}, "Caters": false, "WiFi": "free", "OutdoorSeating": true, "BusinessAcceptsCreditCards": true, "RestaurantsPriceRange2": 1, "BikeParking": true, "RestaurantsTakeOut": true, "WheelchairAccessible": true}, "categories": ["Food", "Coffee & Tea"], "hours": {"Monday": "5:00-21:00", "Tuesday": "5:00-21:00", "Friday": "5:00-21:00", "Wednesday": "5:00-21:00", "Thursday": "5:00-21:00", "Sunday": "5:00-20:30", "Saturday": "5:30-21:30"}}
{"business_id": "anA-99wAZ7PWwapVLP3iMw", "name": "Electric Ladyland", "neighborhood": "", "address": "15435 N Scottsdale Rd", "city": "Scottsdale", "state": "AZ", "postal_code": "85254", "latitude": 33.6268667, "longitude": -111.9249095, "stars": 2.0, "review_count": 9, "is_open": 0, "attributes": {"BusinessAcceptsCreditCards": true, "RestaurantsPriceRange2": 3, "BusinessParking": {"garage": false, "street": false, "validated": false, "lot": true, "valet": false}, "WheelchairAccessible": true}, "categories": ["Men's Clothing", "Shopping", "Women's Clothing", "Fashion", "Accessories"], "hours": {}}
{"business_id": "vjLgZg0DH_9xwcujFNb0pA", "name": "BJ's Buffet", "neighborhood": "", "address": "4945 W Tropicana Ave", "city": "Las Vegas", "state": "NV", "postal_code": "89103", "latitude": 36.099494, "longitude": -115.2083645, "stars": 1.5, "review_count": 35, "is_open": 0, "attributes": {"RestaurantsTableService": true, "GoodForMeal": {"dessert": false, "latenight": false, "lunch": false, "dinner": false, "breakfast": false, "brunch": false}, "Alcohol": "none", "Caters": true, "HasTV": true, "RestaurantsGoodForGroups": true, "NoiseLevel": "average", "WiFi": "no", "RestaurantsAttire": "casual", "RestaurantsReservations": true, "OutdoorSeating": true, "BusinessAcceptsCreditCards": true, "RestaurantsPriceRange2": 1, "BikeParking": true, "RestaurantsDelivery": false, "Ambience": {"romantic": false, "intimate": false, "classy": false, "hipster": false, "divey": false, "touristy": false, "trendy": false, "upscale": false, "casual": false}, "RestaurantsTakeOut": true, "GoodForKids": true, "BusinessParking": {"garage": false, "street": false, "validated": false, "lot": false, "valet": false}}, "categories": ["Restaurants", "Buffets"], "hours": {}}
{"business_id": "5TXQxcwEfqzBDbMq2zmBPQ", "name": "Verona Chophouse", "neighborhood": "", "address": "Lone Butte Casino, 1077 S Kyrene Rd", "city": "Chandler", "state": "AZ", "postal_code": "85226", "latitude": 33.2907071, "longitude": -111.9456801, "stars": 4.0, "review_count": 55, "is_open": 0, "attributes": {"RestaurantsTableService": true, "GoodForMeal": {"dessert": false, "latenight": false, "lunch": false, "dinner": true, "breakfast": false, "brunch": true}, "Alcohol": "full_bar", "Caters": false, "HasTV": true, "RestaurantsGoodForGroups": true, "NoiseLevel": "average", "WiFi": "no", "RestaurantsAttire": "casual", "RestaurantsReservations": true, "OutdoorSeating": true, "BusinessAcceptsCreditCards": true, "RestaurantsPriceRange2": 2, "BikeParking": false, "RestaurantsDelivery": false, "Ambience": {"romantic": true, "intimate": false, "classy": false, "hipster": false, "divey": false, "touristy": false, "trendy": false, "upscale": false, "casual": false}, "RestaurantsTakeOut": false, "GoodForKids": false, "WheelchairAccessible": true, "BusinessParking": {"garage": false, "street": false, "validated": false, "lot": true, "valet": false}}, "categories": ["American (New)", "Steakhouses", "Italian", "Restaurants"], "hours": {"Monday": "17:00-22:00", "Tuesday": "17:00-22:00", "Friday": "17:00-23:00", "Wednesday": "17:00-22:00", "Thursday": "17:00-22:00", "Sunday": "17:00-22:00", "Saturday": "17:00-23:00"}}
{"business_id": "C0yiSrxaTMthwS8PzEow1Q", "name": "Sheraton Grand Phoenix", "neighborhood": "", "address": "340 North 3rd St", "city": "Phoenix", "state": "AZ", "postal_code": "85004", "latitude": 33.4522379, "longitude": -112.0705419, "stars": 3.5, "review_count": 215, "is_open": 1, "attributes": {"BusinessAcceptsCreditCards": true, "RestaurantsPriceRange2": 3, "WiFi": "paid", "DogsAllowed": true}, "categories": ["Event Planning & Services", "Hotels & Travel", "Hotels"], "hours": {"Monday": "0:00-0:00", "Tuesday": "0:00-0:00", "Friday": "0:00-0:00", "Wednesday": "0:00-0:00", "Thursday": "0:00-0:00", "Sunday": "0:00-0:00", "Saturday": "0:00-0:00"}}
{"business_id": "puPY7gVy7RCz8bK1zkzdoQ", "name": "Golden Valley Chinese Restaurant", "neighborhood": "", "address": "832 W Baseline Rd", "city": "Mesa", "state": "AZ", "postal_code": "85210", "latitude": 33.3795863, "longitude": -111.8499629, "stars": 4.0, "review_count": 94, "is_open": 1, "attributes": {"RestaurantsTableService": true, "GoodForMeal": {"dessert": false, "latenight": false, "lunch": true, "dinner": true, "breakfast": false, "brunch": false}, "Alcohol": "beer_and_wine", "Caters": true, "HasTV": false, "RestaurantsGoodForGroups": true, "NoiseLevel": "quiet", "WiFi": "no", "RestaurantsAttire": "casual", "RestaurantsReservations": true, "OutdoorSeating": false, "BusinessAcceptsCreditCards": true, "RestaurantsPriceRange2": 1, "BikeParking": false, "RestaurantsDelivery": false, "Ambience": {"romantic": false, "intimate": false, "classy": false, "hipster": false, "divey": false, "touristy": false, "trendy": false, "upscale": false, "casual": true}, "RestaurantsTakeOut": true, "GoodForKids": true, "WheelchairAccessible": true, "BusinessParking": {"garage": false, "street": false, "validated": false, "lot": true, "valet": false}}, "categories": ["Chinese", "Restaurants"], "hours": {"Monday": "11:00-21:00", "Tuesday": "11:00-21:00", "Friday": "11:00-21:30", "Wednesday": "11:00-21:00", "Thursday": "11:00-21:00", "Sunday": "12:00-21:00", "Saturday": "12:00-21:30"}}
{"business_id": "gpivFNirREOyEAwxVebR5g", "name": "Wendy's", "neighborhood": "", "address": "1405 W Baseline Rd", "city": "Tempe", "state": "AZ", "postal_code": "85283", "latitude": 33.3778358, "longitude": -111.9607244, "stars": 2.5, "review_count": 21, "is_open": 1, "attributes": {"RestaurantsTableService": false, "GoodForMeal": {"dessert": false, "latenight": false, "lunch": false, "dinner": false, "breakfast": false, "brunch": false}, "Alcohol": "none", "Caters": false, "HasTV": false, "RestaurantsGoodForGroups": true, "NoiseLevel": "average", "WiFi": "no", "RestaurantsAttire": "casual", "RestaurantsReservations": false, "OutdoorSeating": false, "BusinessAcceptsCreditCards": true, "RestaurantsPriceRange2": 1, "BikeParking": true, "RestaurantsDelivery": false, "Ambience": {"romantic": false, "intimate": false, "classy": false, "hipster": false, "divey": false, "touristy": false, "trendy": false, "upscale": false, "casual": false}, "RestaurantsTakeOut": true, "GoodForKids": true, "DriveThru": true, "BusinessParking": {"garage": false, "street": false, "validated": false, "lot": false, "valet": false}}, "categories": ["Fast Food", "Burgers", "Restaurants"], "hours": {"Monday": "10:00-0:00", "Tuesday": "10:00-0:00", "Friday": "10:00-1:00", "Wednesday": "10:00-0:00", "Thursday": "10:00-0:00", "Sunday": "10:00-0:00", "Saturday": "10:00-1:00"}}
{"business_id": "5HwBX7gq2a3HkbPusIkypg", "name": "Americas Best Value Inn", "neighborhood": "", "address": "1550 N 52nd Dr", "city": "Phoenix", "state": "AZ", "postal_code": "85043", "latitude": 33.465388, "longitude": -112.173062, "stars": 1.0, "review_count": 8, "is_open": 1, "attributes": {"BusinessAcceptsCreditCards": true, "RestaurantsPriceRange2": 1, "WiFi": "free"}, "categories": ["Event Planning & Services", "Hotels", "Hotels & Travel"], "hours": {}}
{"business_id": "zxLnc3U7SJANsjKv9XGuJw", "name": "Bikram Yoga North Scottsdale", "neighborhood": "", "address": "9301 E Shea Blvd, Ste 121-122", "city": "Scottsdale", "state": "AZ", "postal_code": "85260", "latitude": 33.5803875757, "longitude": -111.880350164, "stars": 4.5, "review_count": 18, "is_open": 1, "attributes": {"BusinessParking": {"garage": false, "street": false, "validated": false, "lot": false, "valet": false}, "BusinessAcceptsCreditCards": true, "BikeParking": true, "GoodForKids": false, "ByAppointmentOnly": true, "WheelchairAccessible": true}, "categories": ["Active Life", "Yoga", "Fitness & Instruction"], "hours": {"Monday": "5:00-20:00", "Tuesday": "5:00-20:00", "Friday": "5:00-18:00", "Wednesday": "5:00-20:00", "Thursday": "5:00-20:00", "Sunday": "7:30-17:00", "Saturday": "5:30-17:00"}}
{"business_id": "nzbQXU2x7O8oucKGthUT3g", "name": "Grimaldi's Pizzeria", "neighborhood": "", "address": "20715 N Pima Rd, Ste F115", "city": "Scottsdale", "state": "AZ", "postal_code": "85255", "latitude": 33.6741553034, "longitude": -111.887854198, "stars": 4.0, "review_count": 189, "is_open": 1, "attributes": {"Alcohol": "full_bar", "HasTV": true, "NoiseLevel": "average", "RestaurantsAttire": "casual", "BusinessAcceptsCreditCards": true, "Ambience": {"romantic": false, "intimate": false, "classy": false, "hipster": false, "divey": false, "touristy": false, "trendy": false, "upscale": false, "casual": true}, "RestaurantsGoodForGroups": true, "BYOBCorkage": "yes_free", "Caters": true, "WiFi": "no", "RestaurantsReservations": true, "BYOB": false, "RestaurantsTableService": true, "Corkage": false, "RestaurantsTakeOut": true, "GoodForKids": true, "WheelchairAccessible": true, "BikeParking": true, "OutdoorSeating": true, "RestaurantsPriceRange2": 2, "RestaurantsDelivery": false, "GoodForMeal": {"dessert": false, "latenight": false, "lunch": true, "dinner": true, "breakfast": false, "brunch": false}, "BusinessParking": {"garage": false, "street": false, "validated": false, "lot": false, "valet": false}}, "categories": ["Restaurants", "Pizza"], "hours": {"Monday": "11:00-22:00", "Tuesday": "11:00-22:00", "Friday": "11:00-23:00", "Wednesday": "11:00-22:00", "Thursday": "11:00-22:00", "Sunday": "11:00-22:00", "Saturday": "11:00-23:00"}}
{"business_id": "2LVuwl-eH-8PYikyFmqcTQ", "name": "Papa Da Vinci", "neighborhood": "Oakland", "address": "3526 Blvd Of The Allies", "city": "Pittsburgh", "state": "PA", "postal_code": "15213", "latitude": 40.434609, "longitude": -79.9554667, "stars": 2.5, "review_count": 28, "is_open": 1, "attributes": {"RestaurantsTableService": false, "GoodForMeal": {"dessert": false, "latenight": true, "lunch": false, "dinner": false, "breakfast": false, "brunch": false}, "Alcohol": "full_bar", "Caters": false, "HasTV": true, "RestaurantsGoodForGroups": true, "NoiseLevel": "average", "RestaurantsAttire": "casual", "RestaurantsReservations": false, "OutdoorSeating": true, "BusinessAcceptsCreditCards": true, "RestaurantsPriceRange2": 1, "BikeParking": true, "RestaurantsDelivery": true, "Ambience": {"romantic": false, "intimate": false, "classy": false, "hipster": false, "divey": true, "touristy": false, "trendy": false, "upscale": false, "casual": false}, "RestaurantsTakeOut": true, "GoodForKids": false, "WheelchairAccessible": true, "BusinessParking": {"garage": false, "street": false, "validated": false, "lot": true, "valet": false}}, "categories": ["Restaurants", "Pizza"], "hours": {"Monday": "17:00-1:00", "Tuesday": "17:00-1:00", "Friday": "11:00-3:00", "Wednesday": "17:00-1:00", "Thursday": "17:00-3:00", "Sunday": "11:00-1:00", "Saturday": "11:00-3:00"}}
{"business_id": "WttyGpOkiv0DDI0Pp2erVA", "name": "Wish Nails", "neighborhood": "", "address": "20545 Center Ridge Rd, Ste 103", "city": "Rocky River", "state": "OH", "postal_code": "44116", "latitude": 41.462082, "longitude": -81.8474789, "stars": 3.0, "review_count": 7, "is_open": 1, "attributes": {}, "categories": ["Beauty & Spas", "Nail Salons"], "hours": {"Tuesday": "15:00-21:00", "Saturday": "8:00-18:00", "Thursday": "8:00-21:00"}}
{"business_id": "sXPuI9cwF8fOe08wedGebw", "name": "Hair Addiction", "neighborhood": "Spring Valley", "address": "9640 W Tropicana Ave, Ste 120", "city": "Las Vegas", "state": "NV", "postal_code": "89147", "latitude": 36.1017696, "longitude": -115.302372, "stars": 4.0, "review_count": 22, "is_open": 1, "attributes": {"BusinessParking": {"garage": false, "street": false, "validated": false, "lot": true, "valet": false}, "BusinessAcceptsCreditCards": true, "RestaurantsPriceRange2": 2, "BikeParking": true, "GoodForKids": true, "ByAppointmentOnly": true, "WheelchairAccessible": false}, "categories": ["Hair Extensions", "Hair Salons", "Beauty & Spas", "Blow Dry/Out Services", "Hair Stylists"], "hours": {"Friday": "9:00-17:00", "Tuesday": "9:00-17:00", "Thursday": "9:00-17:00", "Wednesday": "9:00-17:00", "Monday": "9:00-17:00"}}
{"business_id": "t6SfYTEvg0o_cfJddsqEcg", "name": "Starbucks", "neighborhood": "", "address": "3175 E Thomas Rd", "city": "Phoenix", "state": "AZ", "postal_code": "85016", "latitude": 33.480035, "longitude": -112.0133663, "stars": 2.5, "review_count": 28, "is_open": 1, "attributes": {"BusinessParking": {"garage": false, "street": false, "validated": false, "lot": true, "valet": false}, "Caters": false, "WiFi": "free", "OutdoorSeating": true, "BusinessAcceptsCreditCards": true, "RestaurantsPriceRange2": 2, "BikeParking": true, "RestaurantsTakeOut": true}, "categories": ["Food", "Coffee & Tea"], "hours": {}}
{"business_id": "qsEbriXbvQVaORyJSkCEzQ", "name": "Starbucks", "neighborhood": "Spring Valley", "address": "6080 W Badura Ave", "city": "Enterprise", "state": "NV", "postal_code": "89118", "latitude": 36.0627245611, "longitude": -115.224341069, "stars": 3.0, "review_count": 66, "is_open": 1, "attributes": {"GoodForMeal": {"dessert": false, "latenight": false, "lunch": false, "dinner": false, "breakfast": false, "brunch": false}, "BusinessParking": {"garage": false, "street": false, "validated": false, "lot": true, "valet": false}, "Caters": false, "WiFi": "free", "OutdoorSeating": true, "BusinessAcceptsCreditCards": true, "RestaurantsPriceRange2": 1, "BikeParking": true, "RestaurantsDelivery": false, "RestaurantsTakeOut": true, "WheelchairAccessible": true}, "categories": ["Coffee & Tea", "Food"], "hours": {"Monday": "5:00-21:00", "Tuesday": "5:00-21:00", "Friday": "5:00-21:00", "Wednesday": "5:00-21:00", "Thursday": "5:00-21:00", "Sunday": "5:30-20:00", "Saturday": "5:30-20:00"}}
{"business_id": "eS4LhsclEIMnV3BAdBRu7A", "name": "Autozone", "neighborhood": "", "address": "734 W Warner Rd", "city": "Gilbert", "state": "AZ", "postal_code": "85233", "latitude": 33.3359877, "longitude": -111.8054784, "stars": 4.5, "review_count": 7, "is_open": 1, "attributes": {"BusinessAcceptsCreditCards": true}, "categories": ["Auto Parts & Supplies", "Automotive"], "hours": {}}